fid,name,latitude,longitude,gebied,domeinen,website,koepels
1,KeileCollectief,51.9081824825262,4.43320700481179,Keilekwartier/M4H,"Werken; Werkplaats",,Rotterdam Circulair
2,Gebiedscoöperatie Keilekwartier,51.908239486919,4.43335977169632,Keilekwartier/M4H,"Werken; Werkplaats; Cultuur",,Welzijnscoalitie
3,Keilewerf,51.9085703865125,4.43416696644073,Keilekwartier/M4H,"Werken; Werkplaats; Circulair",,Rotterdam Circulair
4,Katoenhuis,51.907310409874,4.43116690978969,Keilekwartier/M4H,Cultuur,,Welzijnscoalitie
5,Kunst & Complex,51.9085331297601,4.43048548933977,Keilekwartier/M4H,Cultuur,,Welzijnscoalitie
6,Brutus,51.9089565616213,4.43113079268265,Keilekwartier/M4H,Cultuur,,Welzijnscoalitie
7,Voedseltuin Rotterdam (M4H),51.9084683439982,4.43247160092112,Keilekwartier/M4H,"Groen; Voedsel",,Groen010
8,Buurttuin Dakpark Rotterdam,51.9078494039784,4.4393330660188,Keilekwartier/M4H,Groen,,Groen010
9,Materiaalhub M4H,51.909351397244,4.43323803121141,Keilekwartier/M4H,Circulair,,Rotterdam Circulair
10,Getijdenpark Keilehaven,51.9080794403811,4.43109492117194,Keilekwartier/M4H,Groen,,Groen010
11,Placebased,51.9087049568624,4.43420049957033,Keilekwartier/M4H,Werken,https://placebased.nl/,Rotterdam Circulair
13,Delfshaven Coöperatie,51.9103977705702,4.44842911122302,Delfshaven,Zorg,https://delfshavencooperatie.nl/,Welzijnscoalitie
15,Delfshaven Helpt,51.905,4.447,Delfshaven,Zorg,https://www.zorgvrijstaat.nl/delfshaven-helpt/,Welzijnscoalitie
16,Stadspark West,51.9314362667479,4.44945155005184,Delfshaven,Groen,https://stadsparkwest.nl/,Groen010
17,BoTu Buurthuiskamers,51.9116099835494,4.44146766236362,Bospolder-Tussendijken,Zorg,,Welzijnscoalitie
18,Stichting Art is Home,51.894180271837,4.50944678620909,Hillesluis,Cultuur,https://artishome.org/nl,Welzijnscoalitie
19,Stichting Schiezicht,51.9138232295695,4.4449438653345,Bospolder-Tussendijken,Zorg,https://www.schiezicht.com/,Welzijnscoalitie
20,TEX - Het Textielatelier,51.9116381954212,4.4424595039278,Bospolder-Tussendijken,Circulair,,Rotterdam Circulair
21,Stichting Rijnmond Multicultureel Centrum,51.9078612022286,4.44247344729122,Bospolder-Tussendijken,Zorg,,Welzijnscoalitie
22,Het Bollenpandje,51.9092289829257,4.44416226166616,Bospolder-Tussendijken,"Zorg; Circulair",,Welzijnscoalitie
23,Studio Delfshaven,51.908543228133,4.44677754455495,Bospolder-Tussendijken,Circulair,,Rotterdam Circulair
24,Wijkplatform Delfshaven Zuid,51.9120909247306,4.43965367511351,Bospolder-Tussendijken,Zorg,,Welzijnscoalitie
25,Weggeefwinkel Yess!,51.9099300459413,4.4420710364899,Bospolder-Tussendijken,Zorg,https://yess.nu/,Welzijnscoalitie
26,Doorgeefwinkel GoedGoed,51.911343304897,4.44283370294243,Bospolder-Tussendijken,Circulair,https://zwerfierotterdam.nl/,Rotterdam Circulair
27,Huis van de Toekomst BoTu,51.9124138035445,4.44286586106206,Bospolder-Tussendijken,"Energie; Wonen",https://www.huisvandetoekomst.org/,Energie van Rotterdam
28,Stichting Open Haard,51.9159581252949,4.43812770813124,Bospolder-Tussendijken,Zorg,https://stichtingopenhaard.nl,Welzijnscoalitie
29,Bouwkeet,51.9116395409823,4.43765420012976,Delfshaven,Werkplaats,https://bouwkeet.org/,Rotterdam Circulair
30,Speel-o-theek Klein Duimpje,51.9107541970484,4.44470405033789,Bospolder-Tussendijken,Circulair,https://delfshavenlokaal.nl/,Rotterdam Circulair
31,Veerkrachtige Gemeenschap,51.909274257306,4.44418863412528,Bospolder-Tussendijken,Zorg,https://veerkrachtigegemeenschap.org/,Welzijnscoalitie
32,Circulair Mathenesse,51.9187122446565,4.41755532810028,Oud-Mathenesse,Circulair,https://rotterdamcirculair.nl/,Rotterdam Circulair
33,Leerstation/ Opknap Station,51.9142548264782,4.42212373229032,Oud-Mathenesse,Circulair,,Rotterdam Circulair
34,De groene garage,51.916464741685,4.43965640856816,Oud-Mathenesse,"Cultuur; Zorg; Voedsel",https://www.de-groene-garage.nl/,Groen010
35,Stichting jeugdactiviteiten,51.9190980654426,4.41789316180902,Oud-Mathenesse,Zorg,https://www.stichtingjeugdactiviteiten.nl/,Welzijnscoalitie
36,Wijk in Bloei,51.919073210308,4.41795290911214,Oud-Mathenesse,Groen,,Groen010
37,Speeltuin Confetti,51.9131376829347,4.45185409084674,Nieuw-Mathenesse,Groen,,Groen010
38,The NiteShop,51.9101994277639,4.44330855906163,Delfshaven,"Cultuur; Circulair",,Welzijnscoalitie
39,Stichting Kledingbank Rotterdam,51.9045016189665,4.45350899801389,Delfshaven,Circulair,https://www.kledingbank-rotterdam.nl/,Rotterdam Circulair
40,Kinderatelier Punt 5,51.9104195491864,4.44828581213952,Delfshaven,"Cultuur; Educatie",https://www.kinderatelierpunt5.nl/,Welzijnscoalitie
41,Huize Middelland,51.915101744194,4.45980143516936,Middelland,Zorg,,Welzijnscoalitie
42,Thuis in West,51.914847093425,4.45822636200672,Middelland,Zorg,https://www.thuisinwest.nl/,Welzijnscoalitie
43,Het BuurtAtelier,51.9124434217841,4.46083083973667,Middelland,Cultuur,https://hetbuurtatelier.nl/,Welzijnscoalitie
44,Essenburgpark,51.9221846294489,4.44795801572829,Middelland,Groen,https://essenburgpark.nl,Groen010
45,De omloop (WIjkpaleis),51.9151541413893,4.45992787411963,Middelland,Werken,https://liefdevoordedingen.nl/,Rotterdam Circulair
46,Alzheimer Salon Delfshaven,51.9159228601852,4.44644018891455,Nieuwe Westen,Zorg,,Welzijnscoalitie
47,De stadstuinier,51.9098773400336,4.45402576485783,Nieuwe Westen,Groen,https://destadstuinier.nl/,Groen010
48,Groep Goed Wonen,51.9136323610541,4.4505777464723,Nieuwe Westen,Wonen,,Energie van Rotterdam
49,Stichting Pluspunt,51.913494178945,4.44808496486402,Nieuwe Westen,Werkplaats,https://www.pluspuntrotterdam.info/,Rotterdam Circulair
50,Stichting Gezana,51.9176890464227,4.45212373532596,Nieuwe Westen,Zorg,https://www.stichtinggezana.nl/,Welzijnscoalitie
51,Vereniging de Pupillen,51.9107131991872,4.45076152371345,Nieuwe Westen,"Zorg; Educatie",https://leespaleis.nl/,Welzijnscoalitie
52,Tuin de Bajonet,51.9159477493365,4.46414250871967,Oude Westen,Groen,https://www.tuindebajonet.nl/,Groen010
53,Het Lab Rotterdam,51.9029727538833,4.44923355268963,Schiemond,Werkplaats,https://hetlabrotterdam.nl,Rotterdam Circulair
54,Tuin op de Pier,51.901662041492,4.46045653481401,Schiemond,Groen,https://www.tuinopdepier.nl/,Groen010
55,Buurman Rotterdam,51.9021820289818,4.4503791865458,Schiemond,"Circulair; Werkplaats; Educatie",https://buurmanrotterdam.nl/,Rotterdam Circulair
56,Weggeefwinkel Agniesebuurt,51.928,4.478,Agniesebuurt,Circulair,https://rotterdamcirculair.nl/actueel/niets-weggooien-de-weggeefwinkel-de-agniesebuurt-bewijst-dat-het-kan,Rotterdam Circulair
57,Wijkcooperatie Agniesebuurt,51.929,4.479,Agniesebuurt,Community,https://www.agniesewijkbv.nl/,Welzijnscoalitie
58,Iedereen aan Board (Ruilwinkel),51.913,4.495,Noordereiland,Circulair,https://www.iedereenaanboord.nu/,Rotterdam Circulair
59,Gouwe (kl)ouwe,51.888,4.485,Carnisse,"Community; Zorg",https://www.instagram.com/gouwe.klouwe/,Welzijnscoalitie
60,Het Platform: Katendrecht,51.901,4.482,Katendrecht,"Community",https://www.platformkatendrecht.nl/,Welzijnscoalitie
61,Afrikaanderwijk Coöperatie (Grondstoffestation),51.902,4.498,Afrikaanderwijk,Community,https://wijkcooperatie.org/nl/home/,Welzijnscoalitie
62,Sociale werk atelier Tarwewijk,51.894,4.487,Tarwewijk,"Werkplaats; Educatie",https://www.woonstadrotterdam.nl/nieuws/blogs/sociale-werkplaats-voor-sfeervolle-woningen-in-de-tarwewijk,Rotterdam Circulair
63,Tarwekracht,51.895,4.488,Tarwewijk,"Circulair; Voedsel",,Rotterdam Circulair
64,Leeszaal West,51.921,4.468,Oude Westen,"Community",https://leeszaalrotterdamwest.nl/,Welzijnscoalitie
65,Centraal Wonen De Banier,51.922,4.470,Oude Westen,"Community; Wonen",,Energie van Rotterdam
66,Superuse,51.916,4.492,Rotterdam,"Circulair; Werken; Educatie",https://www.superuse-studios.com/,Rotterdam Circulair
67,BlueCity,51.916,4.492,Struisenburg,"Circulair; Werken; Educatie",https://bluecity.nl/,Rotterdam Circulair
68,Verhalenhuis Belvedere,51.901,4.484,Katendrecht,"Cultuur; Community",https://verhalenhuisrotterdam.nl/,Welzijnscoalitie
69,Wijkcoöperatie Crooswijk,51.932,4.495,Crooswijk,Community,,Welzijnscoalitie
70,Vreewijk coöperatie,51.886,4.512,Vreewijk,Community,https://www.vreewijkcooperatie.nl/,Welzijnscoalitie
71,Botucoöp (in oprichting),51.913,4.442,Bospolder-Tussendijken,Community,,Welzijnscoalitie
72,ZOHOCITIZENS Ondernemerscollectief,51.928,4.482,Zomerhofkwartier,"Werken; Community",https://zohorotterdam.nl/,Rotterdam Circulair
73,Wijkcoöperatie Noord (in oprichting),51.935,4.475,Rotterdam-Noord,Community,,Welzijnscoalitie
74,Energie van Rotterdam,51.920,4.480,Centrum,"Energie; Community",,Energie van Rotterdam
75,Nationaal Park Rotterdam,51.922,4.467,Rotterdam,"Groen",,Groen010
76,Stadskwekerij - De KAS,51.928,4.455,Blijdorp,"Groen; Voedsel",https://stadskwekerijdekas.nl/,Groen010
77,Beheercooperatie W1555,51.892,4.475,Oud-Charlois,"Community; Wonen",https://www.w1555.org/about-1,Energie van Rotterdam
78,Bewonersvereniging Stampioendwarsstraten,51.910,4.502,Feijenoord,"Groen",https://www.stampioendwarsstraten.nl/,Groen010
79,Kralingen aan de Maas,51.918,4.515,Kralingen-Crooswijk,"Wonen; Community",https://kralingenaandemaas.nl/,Welzijnscoalitie
80,Rotterdams Tij,51.912,4.505,Feijenoord,"Groen; Educatie",https://rotterdams-tij.nl/,Groen010
81,Buurtcollectief De Esch,51.915,4.525,De Esch,"Community",https://www.buurtcollectiefdeesch.nl/projecten/,Welzijnscoalitie
82,RoCoCo,51.920,4.485,Rotterdam,"Wonen; Community",,Energie van Rotterdam
83,Wijkwijs (onderzoek),51.920,4.440,Rotterdam,Educatie,https://wijkwijs.nl/,Welzijnscoalitie
84,Essajo,51.918,4.425,Mathenesse,"Werken; Educatie",https://www.stichtingessajo.com/,Rotterdam Circulair
85,Recht op de stad,51.915,4.475,Rotterdam,"Wonen",https://rechtopdestad.nl/,Welzijnscoalitie
86,Stadslab zeggenschap,51.915,4.476,Rotterdam,"Wonen",,Welzijnscoalitie
87,Buurtklimaatje,51.920,4.450,Rotterdam,"Groen; Wonen",https://www.buurtklimaatje.nl/,Groen010
88,City Forest Communities,51.875,4.485,Pendrecht,Groen,https://www.pinarbalat.com/city-forest-communities,Groen010
89,Buitenplaats Brienenoord,51.905,4.545,Eiland van Brienenoord,"Groen; Cultuur",https://www.buitenplaatsbrienenoord.nl/,Groen010
90,Rotterdamse Munt,51.905,4.505,Rotterdam,"Groen; Voedsel",,Groen010
91,Kunstlab,51.910,4.445,Rotterdam,"Cultuur; Werkplaats",,Welzijnscoalitie
92,Stichting Hart voor Prins Alexander,51.945,4.555,Prins Alexander,"Cultuur; Community",https://sites.google.com/shvpa.nl/stichting,Welzijnscoalitie
93,CPO De Stichting,51.920,4.490,Rotterdam,Cultuur,https://www.cpodestichting.nl/,Welzijnscoalitie
94,N8W8,51.920,4.480,Rotterdam,Cultuur,https://n8w8rdam.nl/,Welzijnscoalitie
95,Mobility challenge Hoogkwartier,51.922,4.492,Hoogkwartier,Mobiliteit,https://mchoogkwartier.nl/,Welzijnscoalitie
96,Rotterdam loopt,51.920,4.480,Rotterdam,"Zorg; Community; Mobiliteit",https://www.burgerpanelrotterdam.nl/rotterdam-loopt/,Groen010
97,Coöperatie Wijkmobiliteit Rotterdam,51.920,4.480,Rotterdam,"Community; Mobiliteit",,Welzijnscoalitie
98,Coöperatie de veldfabriek Rotterdam,51.920,4.440,Rotterdam,"Voedsel; Circulair",https://www.veldfabriek.nl/,Rotterdam Circulair
99,Biobulkbende,51.920,4.445,Rotterdam,"Voedsel; Circulair",,Rotterdam Circulair
100,Mensa Mensa,51.925,4.440,Rotterdam,"Voedsel; Community",https://mensa-mensa.nl/,Welzijnscoalitie
101,Sponstuin,51.930,4.460,Rotterdam,"Voedsel; Groen",,Groen010
102,Nieuwe Instituut,51.918,4.472,Rotterdam,Cultuur,,Welzijnscoalitie
103,De Urbanisten,51.908,4.433,Rotterdam,Cultuur,,Rotterdam Circulair
104,Rotterdams Weerwoord,51.920,4.480,Rotterdam,Klimaat,,Energie van Rotterdam
105,Centraal Wonen Zevenkamp,51.945,4.580,Zevenkamp,Wonen,,Energie van Rotterdam
106,Blijstroom,51.935,4.475,Rotterdam-Noord,Energie,,Energie van Rotterdam